[{"description": "Establish use as and construct new single family residence and with accessory dwelling unit, construct alterations to existing garage, and establish on-site parking, per plan.", "address": "9553 PALATINE AVE N", "value": "265670", "category": "SINGLE FAMILY / DUPLEX", "applicant_name": "KHOURI, BRADLEY", "latitude": "47.69938878", "longitude": "-122.35701508", "application_permit_number": "6274519", "issue_date": "2011-05-09T00:00:00"}, {"description": "Establish use as townhome and construct new one 5 unit townhome (bldg 1) with attached garage per plan (Review and processing under AP #6254250).", "address": "3000 SW MORGAN ST", "value": "807149", "category": "MULTIFAMILY", "applicant_name": "BOWEN, RON", "latitude": "47.54457732", "longitude": "-122.37020530", "application_permit_number": "6254250", "issue_date": "2011-05-09T00:00:00"}, {"description": "Establish use as townhome and construct one 4-unit townhome (bldg 2) with attached garages per plan (Review and processing under AP #6254250).", "address": "3020 SW MORGAN ST", "value": "657816", "category": "MULTIFAMILY", "applicant_name": "BOWEN, RON", "latitude": "47.54451992", "longitude": "-122.37090313", "application_permit_number": "6254251", "issue_date": "2011-05-09T00:00:00"}, {"description": "Establish and construct new one single family residence (bldg 1) with surface parking per plan", "address": "6501 29TH AVE SW", "value": "171749", "category": "SINGLE FAMILY / DUPLEX", "applicant_name": "BOWEN, RON", "latitude": "47.54441669", "longitude": "-122.36939644", "application_permit_number": "6254387", "issue_date": "2011-05-09T00:00:00"}, {"description": "Establish and construct one new single family residence (bldg 6) with surface parking per plan. (Review & process 9 AP's under 6254387).", "address": "6511 29TH AVE SW", "value": "202502", "category": "SINGLE FAMILY / DUPLEX", "applicant_name": "BOWEN, RON", "latitude": "47.54394388", "longitude": "-122.36927195", "application_permit_number": "6254395", "issue_date": "2011-05-09T00:00:00"}, {"description": "Establish and construct one new single family residence (bldg 5) with surface parking per plan. (Review & process 9 AP's under 6254387).", "address": "6509 29TH AVE SW", "value": "171749", "category": "SINGLE FAMILY / DUPLEX", "applicant_name": "BOWEN, RON", "latitude": "47.54403111", "longitude": "-122.36930934", "application_permit_number": "6254392", "issue_date": "2011-05-09T00:00:00"}, {"description": "Establish use and construct one new single family residence (bldg 4) with surface parking per plan. (Review & process 9 AP's under 6254387).", "address": "6507 29TH AVE SW", "value": "201385", "category": "SINGLE FAMILY / DUPLEX", "applicant_name": "BOWEN, RON", "latitude": "47.54414580", "longitude": "-122.36935103", "application_permit_number": "6254391", "issue_date": "2011-05-09T00:00:00"}, {"description": "Establish and construct new one single family residence (bldg 3) with surface parking per plan. (Review & process 9 AP's under 6254387).", "address": "6505 29TH AVE SW", "value": "171749", "category": "SINGLE FAMILY / DUPLEX", "applicant_name": "BOWEN, RON", "latitude": "47.54423462", "longitude": "-122.36937010", "application_permit_number": "6254390", "issue_date": "2011-05-09T00:00:00"}, {"description": "Establish and construct one new single family residence (bldg 2)with surface parking per plan. (Review & process 9 AP's under 6254387).", "address": "6503 29TH AVE SW", "value": "202502", "category": "SINGLE FAMILY / DUPLEX", "applicant_name": "BOWEN, RON", "latitude": "47.54432002", "longitude": "-122.36936713", "application_permit_number": "6254389", "issue_date": "2011-05-09T00:00:00"}, {"description": "Establish and construct one new single family residence (bldg 7) with surface parking per plan", "address": "6515 29TH AVE SW", "value": "201385", "category": "SINGLE FAMILY / DUPLEX", "applicant_name": "BOWEN, RON", "latitude": "47.54384868", "longitude": "-122.36924207", "application_permit_number": "6254398", "issue_date": "2011-05-09T00:00:00"}, {"description": "Establish use and construct one new single family residence (bldg 9) with surface parking per plan. (Review & process 9 AP's under 6254387).", "address": "6519 29TH AVE SW", "value": "202502", "category": "SINGLE FAMILY / DUPLEX", "applicant_name": "BOWEN, RON", "latitude": "47.54362095", "longitude": "-122.36918755", "application_permit_number": "6254401", "issue_date": "2011-05-09T00:00:00"}, {"description": "Establish use as one new single family residence (bldg 8) with surface parking per plan. (Review & process 9 AP's under 6254387).", "address": "6517 29TH AVE SW", "value": "171749", "category": "SINGLE FAMILY / DUPLEX", "applicant_name": "BOWEN, RON", "latitude": "47.54376550", "longitude": "-122.36920277", "application_permit_number": "6254399", "issue_date": "2011-05-09T00:00:00"}, {"description": "Establish use as multifamily structure (East building), construct two family dwelling per plan (Establish use as multifamily structures and construct 2 - two-family dwellings / review & processing for 2 AP's under 6265897.", "address": "3628 PALATINE AVE N", "value": "337756", "category": "MULTIFAMILY", "applicant_name": "NOVION, EINAR", "latitude": "47.65355511", "longitude": "-122.35614839", "application_permit_number": "6265897", "issue_date": "2011-05-10T00:00:00"}, {"description": "Establish use as multifamily structure (West Building), construct two family dwelling per plan (Establish use as multifamily structures and construct 2 - two-family dwellings / review & processing for 2 AP's under 6265897.", "address": "3630 PALATINE AVE N", "value": "349170", "category": "MULTIFAMILY", "applicant_name": "NOVION, EINAR", "latitude": "47.65355638", "longitude": "-122.35640911", "application_permit_number": "6270112", "issue_date": "2011-05-10T00:00:00"}, {"description": "Establish use and Construct new single family dewlling with detached garage per plan", "address": "8824 DENSMORE AVE N", "value": "289792", "category": "SINGLE FAMILY / DUPLEX", "applicant_name": "NOVION, EINAR", "latitude": "47.69313045", "longitude": "-122.33753369", "application_permit_number": "6273313", "issue_date": "2011-05-11T00:00:00"}, {"description": "Construct new single family dwelling on existing foundation by removing exisiting house to 1st floor deck, expand foundation and build 2 full floors with minor alteration to existing basement,  per plans", "address": "3142 NE 82ND ST", "value": "390000", "category": "SINGLE FAMILY / DUPLEX", "applicant_name": "LANE, JOHN", "latitude": "47.68831540", "longitude": "-122.29323045", "application_permit_number": "6268816", "issue_date": "2011-05-11T00:00:00"}, {"description": "Establish use as single family residence and construct single family dwelling with detached garage, per plan.", "address": "8148 20TH AVE SW", "value": "279999", "category": "SINGLE FAMILY / DUPLEX", "applicant_name": "NOVION, ANDREW", "latitude": "47.52864581", "longitude": "-122.35876560", "application_permit_number": "6270722", "issue_date": "2011-05-12T00:00:00"}, {"description": "Establish use as single family dwelling and construct one family dwelling with attached garage per plan", "address": "4115 1ST AVE NW", "value": "273896", "category": "SINGLE FAMILY / DUPLEX", "applicant_name": "PIERCE, PAUL", "latitude": "47.65683323", "longitude": "-122.35778486", "application_permit_number": "6270517", "issue_date": "2011-05-12T00:00:00"}, {"description": "Establish use as and construct new single family residence with attached garage, per plan.", "address": "2100 WARREN AVE N", "value": "295538", "category": "SINGLE FAMILY / DUPLEX", "applicant_name": "PIERCE, PAUL", "latitude": "47.63755169", "longitude": "-122.35416552", "application_permit_number": "6275775", "issue_date": "2011-05-13T00:00:00"}, {"description": "Establish use as and construct new single family dwelling residence with attached garage, per plan.", "address": "6017 OBERLIN AVE NE", "value": "305031", "category": "SINGLE FAMILY / DUPLEX", "applicant_name": "SIRCOLOUMB, DAVE", "latitude": "47.67279650", "longitude": "-122.27883759", "application_permit_number": "6270726", "issue_date": "2011-05-13T00:00:00"}, {"description": "Establish use and construct new single family residence with detached garage per plans.", "address": "2852 44TH AVE W", "value": "583970", "category": "SINGLE FAMILY / DUPLEX", "applicant_name": "FULTZ, CAMERON", "latitude": "47.64634361", "longitude": "-122.41296068", "application_permit_number": "6265344", "issue_date": "2011-05-13T00:00:00"}, {"description": "Establish use and construct single family residence with attached garage, per plan.", "address": "3249 NE 94TH ST", "value": "161167", "category": "SINGLE FAMILY / DUPLEX", "applicant_name": "TSE ARCHITECTS,", "latitude": "47.69639702", "longitude": "-122.29095198", "application_permit_number": "6265811", "issue_date": "2011-05-16T00:00:00"}, {"description": "Establish use as and construct new single family residence with attached garage per plan.", "address": "3255 45TH AVE SW", "value": "356848", "category": "SINGLE FAMILY / DUPLEX", "applicant_name": "PROCK, OLIVIER", "latitude": "47.57406656", "longitude": "-122.38975325", "application_permit_number": "6254327", "issue_date": "2011-05-18T00:00:00"}, {"description": "Establish use and construct single family residence with attached garage and accessory dwelling unit, per plan.", "address": "9501 21ST AVE NW", "value": "291336", "category": "SINGLE FAMILY / DUPLEX", "applicant_name": "PIERCE, PAUL", "latitude": "47.69842993", "longitude": "-122.38325662", "application_permit_number": "6260071", "issue_date": "2011-05-24T00:00:00"}, {"description": "Establish use as and construct new single family residence with attached garage, per plan.", "address": "8120 32ND AVE SW", "value": "294450", "category": "SINGLE FAMILY / DUPLEX", "applicant_name": "DUFFUS, DAN", "latitude": "47.52944176", "longitude": "-122.37365503", "application_permit_number": "6276715", "issue_date": "2011-05-25T00:00:00"}, {"description": "Underpinning of adjacent foundations along northern property line. (CShoring and excavation only. Review & processing under A/P # 6272314).", "address": "1905 QUEEN ANNE AVE N", "value": "1000", "category": "MULTIFAMILY", "applicant_name": "MACDONALD, GREG", "latitude": "47.63627759", "longitude": "-122.35729520", "application_permit_number": "6277142", "issue_date": "2011-05-25T00:00:00"}, {"description": "Shoring and excavation only. Includes underpinning of adjacent structure under 6277142. (Construction of a four-story mixed use structure)", "address": "1919 QUEEN ANNE AVE N", "value": "100000", "category": "MULTIFAMILY", "applicant_name": "MACDONALD, GREG", "latitude": "47.63662870", "longitude": "-122.35739732", "application_permit_number": "6272314", "issue_date": "2011-05-25T00:00:00"}, {"description": "Establish use and Construct new single family dewlling with attached garage per plan", "address": "8809 BURKE AVE N", "value": "257037", "category": "SINGLE FAMILY / DUPLEX", "applicant_name": "NOVION, EINAR", "latitude": "47.69263108", "longitude": "-122.33545986", "application_permit_number": "6273256", "issue_date": "2011-05-26T00:00:00"}, {"description": "Establish use as single family residence and construct one family dwelling, per plans.", "address": "6709 26TH AVE NW", "value": "316157", "category": "SINGLE FAMILY / DUPLEX", "applicant_name": "CROSS, TOM", "latitude": "47.67794558", "longitude": "-122.38999398", "application_permit_number": "6239991", "issue_date": "2011-05-27T00:00:00"}, {"description": "Construct single family dwelling with attached garage on vacant lot, per plans.", "address": "6115 1ST AVE NE", "value": "279347", "category": "SINGLE FAMILY / DUPLEX", "applicant_name": "BRANT, GREG", "latitude": "47.67332990", "longitude": "-122.32846278", "application_permit_number": "6277328", "issue_date": "2011-05-27T00:00:00"}, {"description": "Establish use as single-family dwelling and construct one family dwelling with attached garage pe plan.", "address": "6113 36TH AVE NW", "value": "320943", "category": "SINGLE FAMILY / DUPLEX", "applicant_name": "KIRK, LEE", "latitude": "47.67327583", "longitude": "-122.40389152", "application_permit_number": "6262942", "issue_date": "2011-05-27T00:00:00"}, {"description": "Establish use as a single-family dwelling and construct one family dwelling with attached garage per plan.", "address": "6117 36TH AVE NW", "value": "320943", "category": "SINGLE FAMILY / DUPLEX", "applicant_name": "KIRK, LEE", "latitude": "47.67337329", "longitude": "-122.40390152", "application_permit_number": "6262938", "issue_date": "2011-05-27T00:00:00"}, {"description": "Construct South Duplex townhouse and occupy per plan. (Establish use as multi family structures and construct two new triplex structure and one new duplex/ review and process for 3 AP's under #6249289)", "address": "1304 E JOHN ST", "value": "391316", "category": "MULTIFAMILY", "applicant_name": "KOUBA, CHIP", "latitude": "47.62013550", "longitude": "-122.31524783", "application_permit_number": "6259747", "issue_date": "2011-05-27T00:00:00"}, {"description": "Construct East triplex townhouse and occupy per plan (Establish use as multi family structures and construct two new triplex structure and one new duplex/ review and process for 3 AP's under #6249289).", "address": "208 13TH AVE E", "value": "546634", "category": "MULTIFAMILY", "applicant_name": "KOUBA, CHIP", "latitude": "47.62028504", "longitude": "-122.31511990", "application_permit_number": "6266965", "issue_date": "2011-05-27T00:00:00"}, {"description": "Construct West triplex townhouse and occupy per plan. Establish use as multi family structures and construct two new triplex structure and one new duplex. (review and process for 3 AP's under #6249289). Porject # 6294149 revision to place retaining wall at property line.", "address": "210 13TH AVE E", "value": "555695", "category": "MULTIFAMILY", "applicant_name": "KOUBA, CHIP", "latitude": "47.62028071", "longitude": "-122.31531516", "application_permit_number": "6249289", "issue_date": "2011-05-27T00:00:00"}, {"description": "CLOSED AS INCOMPLETE - EXPIRED PERMIT. Establish use as and construct new single family residence w/attached garage, per plan.", "address": "7318 44TH AVE SW", "value": "378758", "category": "SINGLE FAMILY / DUPLEX", "applicant_name": "SANDALL, PETER", "latitude": "47.53777754", "longitude": "-122.38805653", "application_permit_number": "6272613", "issue_date": "2011-05-31T00:00:00"}, {"description": "CLOSED AS INCOMPLETE - EXPIRED PERMIT. Establish use and construct new single family residence per plan.", "address": "1145 19TH AVE E", "value": "278906", "category": "SINGLE FAMILY / DUPLEX", "applicant_name": "SHIFFLER, GREGORY", "latitude": "47.63004145", "longitude": "-122.30777614", "application_permit_number": "6272823", "issue_date": "2011-05-31T00:00:00"}, {"description": "Construct new single family residence (on the site of Single family residence to be removed) with attached garage, per plan", "address": "2515 30TH AVE W", "value": "469024", "category": "SINGLE FAMILY / DUPLEX", "applicant_name": "POTESTA, PIETRO", "latitude": "47.64159817", "longitude": "-122.39594365", "application_permit_number": "6212173", "issue_date": "2011-05-31T00:00:00"}, {"description": "Establish Use as & Construct new single family residence with attached garage, per plan.", "address": "1515 35TH AVE S", "value": "252447", "category": "SINGLE FAMILY / DUPLEX", "applicant_name": "DOSS, DAREN", "latitude": "47.58835364", "longitude": "-122.28832228", "application_permit_number": "6268838", "issue_date": "2011-06-01T00:00:00"}, {"description": "CLOSED AS INCOMPLETE - EXPIRED PERMIT. Establish use as single family residence and construct one family dwelling with accessory dwelling unit, per plans.", "address": "1317 N 78TH ST", "value": "452782", "category": "SINGLE FAMILY / DUPLEX", "applicant_name": "CLIFT, STUART", "latitude": "47.68534152", "longitude": "-122.34097143", "application_permit_number": "6138947", "issue_date": "2011-06-01T00:00:00"}, {"description": "Establish use and construct single family residence with surface parking, per plan. (Existing garage to be removed)", "address": "1323 N 88TH ST", "value": "199132", "category": "SINGLE FAMILY / DUPLEX", "applicant_name": "DUFFUS, DAN", "latitude": "47.69218206", "longitude": "-122.34069782", "application_permit_number": "6278851", "issue_date": "2011-06-02T00:00:00"}, {"description": "CLOSED AS INCOMPLETE - EXPIRED PERMIT. Establish use for and construct single family dwelling with associated parking per plan.", "address": "2518 EVERETT AVE E", "value": "176614", "category": "SINGLE FAMILY / DUPLEX", "applicant_name": "ARNOLD, GREGORY", "latitude": "47.64203303", "longitude": "-122.31377198", "application_permit_number": "6228874", "issue_date": "2011-06-06T00:00:00"}, {"description": "Establish use as single family residence and construct one family dwelling with attached garage per plan.", "address": "6908 57TH AVE NE", "value": "419652", "category": "SINGLE FAMILY / DUPLEX", "applicant_name": "BLAIKIE, THOMAS", "latitude": "47.67864563", "longitude": "-122.26669704", "application_permit_number": "6270910", "issue_date": "2011-06-06T00:00:00"}, {"description": "Establish use as single family residence and construct one family dwelling per plan.", "address": "2856 44TH AVE W", "value": "566954", "category": "SINGLE FAMILY / DUPLEX", "applicant_name": "FULTZ, CAMERON", "latitude": "47.64646331", "longitude": "-122.41293189", "application_permit_number": "6265325", "issue_date": "2011-06-06T00:00:00"}, {"description": "Establish use and construct single family residence with attached garage per plan", "address": "8206 2ND AVE NE", "value": "430808", "category": "SINGLE FAMILY / DUPLEX", "applicant_name": "AHMADNIA, HOSSEIN", "latitude": "47.68891015", "longitude": "-122.32669955", "application_permit_number": "6066935", "issue_date": "2011-06-06T00:00:00"}, {"description": "Establish use and construct single family residence with attached garage, per plan.", "address": "1717 WARREN AVE N", "value": "315115", "category": "SINGLE FAMILY / DUPLEX", "applicant_name": "EDWARDS, LEE", "latitude": "47.63458781", "longitude": "-122.35475001", "application_permit_number": "6276275", "issue_date": "2011-06-07T00:00:00"}, {"description": "Establish use as single-family dwelling and construct one family dwelling with basement garage within existing foundation, per plan.", "address": "1111 5TH AVE W", "value": "490000", "category": "SINGLE FAMILY / DUPLEX", "applicant_name": "MCBRIDE, KEN", "latitude": "47.62912688", "longitude": "-122.36339778", "application_permit_number": "6266169", "issue_date": "2011-06-07T00:00:00"}, {"description": "Construct one (1) new single family residence with attached garage to the east of existing sfr (to remain), per plan.", "address": "511 21ST AVE", "value": "178718", "category": "SINGLE FAMILY / DUPLEX", "applicant_name": "NOVION, ANDREW", "latitude": "47.60654771", "longitude": "-122.30559849", "application_permit_number": "6177556", "issue_date": "2011-06-09T00:00:00"}, {"description": "Establish use as a single family residence and construct one family dwelling with attached garage per plan.", "address": "5311 SW SHORE PL", "value": "294621", "category": "SINGLE FAMILY / DUPLEX", "applicant_name": "MUNSON, RANDALL", "latitude": "47.55407542", "longitude": "-122.39856642", "application_permit_number": "6250576", "issue_date": "2011-06-13T00:00:00"}, {"description": "Establish use as and construct new single family residence with detached accessory garage per plan.9/23/2011 project # 6293160 Revision to change to wood deck, temp. excav. & storm drainage for, Establish use as and construct new single family residence with detached accessory garage per plan.", "address": "6227 32ND AVE NE", "value": "460844", "category": "SINGLE FAMILY / DUPLEX", "applicant_name": "KATSAROS, ESTER", "latitude": "47.67483304", "longitude": "-122.29356167", "application_permit_number": "6256945", "issue_date": "2011-06-13T00:00:00"}, {"description": "Establish use as and construct single family residence with attached carport, per plans.", "address": "955 N 102ND ST", "value": "159197", "category": "SINGLE FAMILY / DUPLEX", "applicant_name": "PARDO, CHRIS", "latitude": "47.70269254", "longitude": "-122.34539062", "application_permit_number": "6269228", "issue_date": "2011-06-14T00:00:00"}, {"description": "Establish use as single family residence and construct one family dwelling with attached garage, per plans.", "address": "4512 S KENNY ST", "value": "298000", "category": "SINGLE FAMILY / DUPLEX", "applicant_name": "BENNETT, SCOTT", "latitude": "47.54916428", "longitude": "-122.27633995", "application_permit_number": "6187267", "issue_date": "2011-06-15T00:00:00"}, {"description": "Establish use and construct new single family dwelling with attached garage and occupy, per plan", "address": "5111 NE LAURELCREST LN", "value": "531208", "category": "SINGLE FAMILY / DUPLEX", "applicant_name": "DEFOREST, JOHN", "latitude": "47.65629045", "longitude": "-122.27165113", "application_permit_number": "6266257", "issue_date": "2011-06-15T00:00:00"}, {"description": "Remove detached garage, establish use as and construct single family residence with attached garage, per plan.", "address": "3259 NE 105TH ST", "value": "439469", "category": "SINGLE FAMILY / DUPLEX", "applicant_name": "CROSS, TOM", "latitude": "47.70461969", "longitude": "-122.29154702", "application_permit_number": "6263381", "issue_date": "2011-06-15T00:00:00"}, {"description": "Establish use as single family residence and construct one family dwelling per plans", "address": "3719 37TH AVE S", "value": "306949", "category": "SINGLE FAMILY / DUPLEX", "applicant_name": "WEBER, JULIAN", "latitude": "47.57002083", "longitude": "-122.28645148", "application_permit_number": "6260809", "issue_date": "2011-06-15T00:00:00"}, {"description": "Establish and construct new single-family residence with attached garage and block wall per plan.", "address": "3715 37TH AVE S", "value": "340898", "category": "SINGLE FAMILY / DUPLEX", "applicant_name": "WEBER, JULIAN", "latitude": "47.57013234", "longitude": "-122.28644193", "application_permit_number": "6260807", "issue_date": "2011-06-15T00:00:00"}, {"description": "CLOSED AS INCOMPLETE - EXPIRED PERMIT. Establish use and construct one duplex (Parent A/P) and two single family residences per plan (Review and processing of three A/P's under 6250744)", "address": "908 29TH AVE S", "value": "456031", "category": "SINGLE FAMILY / DUPLEX", "applicant_name": "WEBER, JULIAN", "latitude": "47.59419119", "longitude": "-122.29503425", "application_permit_number": "6250744", "issue_date": "2011-06-15T00:00:00"}, {"description": "Establish use and Construct Single family residence (North) per plan (Review and processing done under A/P 6250744)", "address": "906 29TH AVE S", "value": "163757", "category": "SINGLE FAMILY / DUPLEX", "applicant_name": "WEBER, JULIAN", "latitude": "47.59417983", "longitude": "-122.29523694", "application_permit_number": "6257587", "issue_date": "2011-06-15T00:00:00"}, {"description": "Establish use and Construct Single family residence (South) per plan (Review and processing done under A/P 6250744)", "address": "910 29TH AVE S", "value": "168846", "category": "SINGLE FAMILY / DUPLEX", "applicant_name": "WEBER, JULIAN", "latitude": "47.59412741", "longitude": "-122.29522015", "application_permit_number": "6257586", "issue_date": "2011-06-15T00:00:00"}, {"description": "Establish and construct of a single family residence with attached garage, per plan.", "address": "1110 NW 87TH ST", "value": "221629", "category": "SINGLE FAMILY / DUPLEX", "applicant_name": "ARD, BRITTANI", "latitude": "47.692207", "longitude": "-122.37097418", "application_permit_number": "6277112", "issue_date": "2011-06-16T00:00:00"}, {"description": "Establish and construct single family residence with attached garage (existing foundation to remain), per plan.", "address": "3426 19TH AVE S", "value": "324050", "category": "SINGLE FAMILY / DUPLEX", "applicant_name": "HAMMER, TIM", "latitude": "47.57239323", "longitude": "-122.30632465", "application_permit_number": "6277088", "issue_date": "2011-06-17T00:00:00"}, {"description": "Establish use as townhouse and construct (1) 3-unit townhouse per plans. PR 1/25/2012 project # 6306483 Revision to alter parking area paving for, Establish use as townhouse and construct (1) 3-unit townhouse per plans", "address": "4010 14TH AVE S", "value": "428060", "category": "MULTIFAMILY", "applicant_name": "LEDOUX, JULIE", "latitude": "47.56775841", "longitude": "-122.31428571", "application_permit_number": "6247759", "issue_date": "2011-06-20T00:00:00"}, {"description": "Establish use as townhouse and construct (1) 3-unit townhouse per plans. PR 1/25/12 project # 6306484 Revision to alter parking area paving at townhouse per plans.", "address": "4012 14TH AVE S", "value": "428060", "category": "MULTIFAMILY", "applicant_name": "LEDOUX, JULIE", "latitude": "47.56759139", "longitude": "-122.31428096", "application_permit_number": "6247760", "issue_date": "2011-06-20T00:00:00"}, {"description": "Establish use and construct one family dwelling with attached garage, per plan.", "address": "5530 S DAWSON ST", "value": "331230", "category": "SINGLE FAMILY / DUPLEX", "applicant_name": "DUFFUS, DAN", "latitude": "47.55495797", "longitude": "-122.26330925", "application_permit_number": "6281980", "issue_date": "2011-06-21T00:00:00"}, {"description": "Establish Use & Construct new SFR with attached garage, per plan.", "address": "8700 12TH AVE NW", "value": "247366", "category": "SINGLE FAMILY / DUPLEX", "applicant_name": "ARD, BRITTANI", "latitude": "47.692208", "longitude": "-122.37125272", "application_permit_number": "6277255", "issue_date": "2011-06-21T00:00:00"}, {"description": "Phased project: Construction of an apartment building and occupy per plan.", "address": "4484 M L KING JR WAY S", "value": "4956841", "category": "MULTIFAMILY", "applicant_name": "BOLLO, CHRISTINA", "latitude": "47.56316566", "longitude": "-122.29446023", "application_permit_number": "6252773", "issue_date": "2011-06-22T00:00:00"}, {"description": "Construct new single family residence with attached garage, per plan.", "address": "4532 23RD AVE SW", "value": "365306", "category": "SINGLE FAMILY / DUPLEX", "applicant_name": "FOSTER, DAVID", "latitude": "47.56201307", "longitude": "-122.36171782", "application_permit_number": "6250122", "issue_date": "2011-06-22T00:00:00"}, {"description": "Establish use as single family dwelling and construct one family dwelling with basement garage per plan.", "address": "4327 MERIDIAN AVE N", "value": "435557", "category": "SINGLE FAMILY / DUPLEX", "applicant_name": "LARSEN, CINDY", "latitude": "47.65993750", "longitude": "-122.33427664", "application_permit_number": "6277322", "issue_date": "2011-06-23T00:00:00"}, {"description": "Establish use & construct single family residence with attached garage (Portion of basement to remain), per plan.", "address": "2560 12TH AVE W", "value": "415172", "category": "SINGLE FAMILY / DUPLEX", "applicant_name": "BIDDLE, DAVE", "latitude": "47.64248676", "longitude": "-122.37230909", "application_permit_number": "6268956", "issue_date": "2011-06-24T00:00:00"}, {"description": "Establish/construct single family residence with attached garage per plan", "address": "2126 41ST AVE SW", "value": "300250", "category": "SINGLE FAMILY / DUPLEX", "applicant_name": "KING, JEFF", "latitude": "47.58446359", "longitude": "-122.38350334", "application_permit_number": "6249371", "issue_date": "2011-06-24T00:00:00"}, {"description": "Construct new single family residence with attached garage, per plan.", "address": "4528 23RD AVE SW", "value": "364903", "category": "SINGLE FAMILY / DUPLEX", "applicant_name": "FOSTER, DAVID", "latitude": "47.56216969", "longitude": "-122.36182464", "application_permit_number": "6250118", "issue_date": "2011-06-24T00:00:00"}, {"description": "Establish use as and construct new SFR with attached garage, including slope stabilization on adjacent property, per plan.", "address": "4524 23RD AVE SW", "value": "360257", "category": "SINGLE FAMILY / DUPLEX", "applicant_name": "FOSTER, DAVID", "latitude": "47.56215891", "longitude": "-122.36209510", "application_permit_number": "6250124", "issue_date": "2011-06-24T00:00:00"}, {"description": "Establish use as and construct new SFR with attached garage, including slope stabilization on adjacent property, per plan.", "address": "4536 23RD AVE SW", "value": "358723", "category": "SINGLE FAMILY / DUPLEX", "applicant_name": "FOSTER, DAVID", "latitude": "47.56197375", "longitude": "-122.36196940", "application_permit_number": "6250120", "issue_date": "2011-06-24T00:00:00"}, {"description": "Establish use as rowhouses and construct (5) rowhouses with attached garages, per plan.", "address": "804 N 48TH ST", "value": "786918", "category": "MULTIFAMILY", "applicant_name": "PENNER, ROGER", "latitude": "47.66371672", "longitude": "-122.34837693", "application_permit_number": "6270803", "issue_date": "2011-06-28T00:00:00"}, {"description": "Establish use as and construct new single family residence with attached garage per plan.", "address": "1721 SUNSET AVE SW", "value": "722083", "category": "SINGLE FAMILY / DUPLEX", "applicant_name": "KOCH, ROBERT", "latitude": "47.58758067", "longitude": "-122.39256423", "application_permit_number": "6268556", "issue_date": "2011-07-01T00:00:00"}, {"description": "Establish use as single family dwelling and construct one family dwelling per plan.", "address": "3414 NW 62ND ST", "value": "255236", "category": "SINGLE FAMILY / DUPLEX", "applicant_name": "SERRA, CHRIS", "latitude": "47.67418391", "longitude": "-122.40179068", "application_permit_number": "6272269", "issue_date": "2011-07-01T00:00:00"}, {"description": "CLOSED AS INCOMPLETE - EXPIRED PERMIT. Establish use as single-family residence and construct one family dwelling with attached garage, per plan.", "address": "6419 9TH AVE NW", "value": "271842", "category": "SINGLE FAMILY / DUPLEX", "applicant_name": "CHRISTIANSON, KIRK", "latitude": "47.67583502", "longitude": "-122.36903147", "application_permit_number": "6275334", "issue_date": "2011-07-01T00:00:00"}, {"description": "Demo of existing SFR and establish use as single family dwelling and construct one family dwelling per plan. - revised description.  Permit originally issued to, --- Construct addition to and alter existing single family dwelling per plan. pr 10/7/2011 project # 6293880 Revise permit 6283031 to construct single family dwelling.", "address": "1425 M L KING JR WAY", "value": "120384", "category": "SINGLE FAMILY / DUPLEX", "applicant_name": "PALMAFFY, DANTE", "latitude": "47.61371266", "longitude": "-122.29667861", "application_permit_number": "6283031", "issue_date": "2011-07-06T00:00:00"}, {"description": "Install prefabricated shed accessory to existing single family residence subject to field inspection, per site plan", "address": "8207 MERIDIAN AVE N", "value": "4045", "category": "SINGLE FAMILY / DUPLEX", "applicant_name": "SWARTZ, RON", "latitude": "47.68893709", "longitude": "-122.33351316", "application_permit_number": "6288279", "issue_date": "2011-07-07T00:00:00"}, {"description": "Remove existing garage and construct new detached accessory dwelling unit, per plan.", "address": "5625 12TH AVE NE", "value": "88032", "category": "SINGLE FAMILY / DUPLEX", "applicant_name": "HERRON, PHILLIP", "latitude": "47.67017807", "longitude": "-122.31551992", "application_permit_number": "6278847", "issue_date": "2011-07-07T00:00:00"}, {"description": "Cancel per customer log 11-667a", "address": "13511 23RD AVE NE", "value": "236300", "category": "SINGLE FAMILY / DUPLEX", "applicant_name": "HAUEISEN, TERRY", "latitude": "47.72699780", "longitude": "-122.30437230", "application_permit_number": "6269079", "issue_date": "2011-07-08T00:00:00"}, {"description": "Construct new house on existing foundations per plans.", "address": "316 NE 117TH ST", "value": "106025", "category": "SINGLE FAMILY / DUPLEX", "applicant_name": "HOLMQUIST, GALEN", "latitude": "47.71424322", "longitude": "-122.32535670", "application_permit_number": "6288004", "issue_date": "2011-07-12T00:00:00"}, {"description": "Establish use as and construct new single family residence with surface parking, per plan.", "address": "7529 EARL AVE NW", "value": "377447", "category": "SINGLE FAMILY / DUPLEX", "applicant_name": "CLOWARD, BRIAN", "latitude": "47.68404316", "longitude": "-122.39223987", "application_permit_number": "6238729", "issue_date": "2011-07-15T00:00:00"}, {"description": "Establish use as single family residence and construct one family dwelling, per plan.", "address": "14020 36TH AVE NE", "value": "222949", "category": "SINGLE FAMILY / DUPLEX", "applicant_name": "VITA, STEVE", "latitude": "47.73079224", "longitude": "-122.28938877", "application_permit_number": "6276552", "issue_date": "2011-07-15T00:00:00"}, {"description": "Establish Use & Construct new single family residence with attached garage per plan.", "address": "3200 E REPUBLICAN ST", "value": "312819", "category": "SINGLE FAMILY / DUPLEX", "applicant_name": "PIERCE, PAUL", "latitude": "47.62386721", "longitude": "-122.29098416", "application_permit_number": "6280713", "issue_date": "2011-07-15T00:00:00"}, {"description": "Establish use and construct one single family dwelling with attached garage, per plan.", "address": "4134 52ND AVE SW", "value": "261723", "category": "SINGLE FAMILY / DUPLEX", "applicant_name": "PIERCE, PAUL", "latitude": "47.56569566", "longitude": "-122.39859922", "application_permit_number": "6275920", "issue_date": "2011-07-15T00:00:00"}, {"description": "Establish use and construct single family dwelling with attached garage, per plan.", "address": "4136 52ND AVE SW", "value": "328025", "category": "SINGLE FAMILY / DUPLEX", "applicant_name": "PIERCE, PAUL", "latitude": "47.56569343", "longitude": "-122.39839521", "application_permit_number": "6275925", "issue_date": "2011-07-15T00:00:00"}, {"description": "Establish use as and Construct new single family residence (SFR) with attached garage, per plan.", "address": "3827 CARR PL N", "value": "188978", "category": "SINGLE FAMILY / DUPLEX", "applicant_name": "WEGENER, JEFF", "latitude": "47.65353668", "longitude": "-122.33950232", "application_permit_number": "6271203", "issue_date": "2011-07-15T00:00:00"}, {"description": "Establish use as and construct single family residence, per plan.", "address": "3825 CARR PL N", "value": "193192", "category": "SINGLE FAMILY / DUPLEX", "applicant_name": "WEGENER, JEFF", "latitude": "47.65347123", "longitude": "-122.33950218", "application_permit_number": "6271599", "issue_date": "2011-07-15T00:00:00"}, {"description": "Establish use as and construct new single family residence per plan.", "address": "9716 44TH AVE SW", "value": "226628", "category": "SINGLE FAMILY / DUPLEX", "applicant_name": "HENDERSHOTT, BOB", "latitude": "47.51655949", "longitude": "-122.38876968", "application_permit_number": "6281593", "issue_date": "2011-07-18T00:00:00"}, {"description": "Establish use as and construct single family residence with attached garage per plan.", "address": "1458 NW 95TH ST", "value": "329015", "category": "SINGLE FAMILY / DUPLEX", "applicant_name": "NOVION, EINAR", "latitude": "47.69810078", "longitude": "-122.37596331", "application_permit_number": "6275637", "issue_date": "2011-07-18T00:00:00"}, {"description": "Remove existing garage and construct a new detached garage accessory to single family residence per plan.", "address": "1730 MAGNOLIA WAY W", "value": "16182", "category": "SINGLE FAMILY / DUPLEX", "applicant_name": "FANNING, THOMAS", "latitude": "47.63481465", "longitude": "-122.38953497", "application_permit_number": "6278425", "issue_date": "2011-07-18T00:00:00"}, {"description": "Establish use and construct single family dwelling with attached garage, per plan. Existing townhouse unit to remain.", "address": "216B 26TH AVE E", "value": "149805", "category": "SINGLE FAMILY / DUPLEX", "applicant_name": "FOSTER, DAVID", "latitude": "47.62076145", "longitude": "-122.29806071", "application_permit_number": "6252937", "issue_date": "2011-07-18T00:00:00"}, {"description": "Establish use as single family residence and construct one family dwelling with attached accessory dwelling unit, per plan.", "address": "6518 44TH AVE SW", "value": "388809", "category": "SINGLE FAMILY / DUPLEX", "applicant_name": "SMITH, LEO", "latitude": "47.54409327", "longitude": "-122.38843230", "application_permit_number": "6278567", "issue_date": "2011-07-20T00:00:00"}, {"description": "Establish and construct new Single Family Residence per plan.", "address": "4576 35TH AVE W", "value": "340348", "category": "SINGLE FAMILY / DUPLEX", "latitude": "47.66316747", "longitude": "-122.40233118", "application_permit_number": "6249767", "issue_date": "2011-07-20T00:00:00"}, {"description": "Demolition of existing house down to 1st floor diaphragm. Establish use and construct new single family residence per plan.", "address": "5001 NE SUNRISE VISTA", "value": "488237", "category": "SINGLE FAMILY / DUPLEX", "applicant_name": "RYAN, LINDSEY", "latitude": "47.68438570", "longitude": "-122.27402423", "application_permit_number": "6280660", "issue_date": "2011-07-25T00:00:00"}, {"description": "CLOSED AS INCOMPLETE - EXPIRED PERMIT. Construct and establish use as a single family residence per plan.  (Portion fo work is done under STFI's 6252999 and 6268325).", "address": "2328 42ND AVE E", "value": "51000", "category": "SINGLE FAMILY / DUPLEX", "applicant_name": "ARD, BRITTANI", "latitude": "47.64002492", "longitude": "-122.27798513", "application_permit_number": "6278496", "issue_date": "2011-07-25T00:00:00"}, {"description": "Establish use for duplex (2-unit townhouse) and construct 2-unit townhouse with on-site parking, per plan.", "address": "905 W EMERSON ST", "value": "445293", "category": "SINGLE FAMILY / DUPLEX", "applicant_name": "NOVION, EINAR", "latitude": "47.65212008", "longitude": "-122.36935188", "application_permit_number": "6266074", "issue_date": "2011-07-27T00:00:00"}, {"description": "Establish use as and construct new single family residence with attached garage, per plan.", "address": "7026 18TH AVE NW", "value": "447119", "category": "SINGLE FAMILY / DUPLEX", "applicant_name": "LORENZ, FLOYD", "latitude": "47.68036027", "longitude": "-122.37976695", "application_permit_number": "6284578", "issue_date": "2011-07-28T00:00:00"}, {"description": "Construct new single family residence with attached garage, per plan.", "address": "2604 NW 86TH ST", "value": "440876", "category": "SINGLE FAMILY / DUPLEX", "applicant_name": "LORENZ, FLOYD", "latitude": "47.69146049", "longitude": "-122.39053335", "application_permit_number": "6284584", "issue_date": "2011-07-28T00:00:00"}, {"description": "Establish use and construct 2 unit townhouse with surface parking, per plan", "address": "3009 62ND AVE SW", "value": "325278", "category": "SINGLE FAMILY / DUPLEX", "applicant_name": "DUFFUS, DAN", "latitude": "47.57748579", "longitude": "-122.41247877", "application_permit_number": "6279218", "issue_date": "2011-07-28T00:00:00"}, {"description": "Establish use as single family dwelling and construct one family dwelling on existing foundation and a detached garage, per plan.", "address": "3334 NE BLAKELEY ST", "value": "282190", "category": "SINGLE FAMILY / DUPLEX", "applicant_name": "STETTLER, DANIEL", "latitude": "47.66249018", "longitude": "-122.29225735", "application_permit_number": "6276566", "issue_date": "2011-07-28T00:00:00"}, {"description": "Establish standard plan for future construction of a single family residence, per plans.", "address": "700 5TH AVE", "value": "196804", "category": "SINGLE FAMILY / DUPLEX", "applicant_name": "WASSE, MATT", "latitude": "47.60501319", "longitude": "-122.32989532", "application_permit_number": "6290361", "issue_date": "2011-07-29T00:00:00"}, {"description": "Establish use and construct single family residence with attached garage per plan.", "address": "8528 9TH AVE NW", "value": "187318", "category": "SINGLE FAMILY / DUPLEX", "applicant_name": "BRANT, GREG", "latitude": "47.69160441", "longitude": "-122.36797429", "application_permit_number": "6279097", "issue_date": "2011-07-29T00:00:00"}, {"description": "Establish use as and construct townhouses (4 units) with surface parking, per plan.", "address": "1732 NW 59TH ST", "value": "685479", "category": "MULTIFAMILY", "applicant_name": "NOVION, EINAR", "latitude": "47.67193630", "longitude": "-122.38032213", "application_permit_number": "6274273", "issue_date": "2011-07-29T00:00:00"}, {"description": "Construct retaining wall and brick fence subject to field inspection/per site plan.", "address": "1920 7TH AVE W", "value": "2000", "category": "SINGLE FAMILY / DUPLEX", "applicant_name": "KENT, ERIC", "latitude": "47.63662250", "longitude": "-122.36594594", "application_permit_number": "6290965", "issue_date": "2011-08-01T00:00:00"}, {"description": "Construct SW triplex (Establish use and construct two 2-unit and two 3-unit touwnhouses with attaached garages, per plan).  Review and processing for 4 ap under 6176772.", "address": "4624 S DIRECTOR ST", "value": "439692", "category": "MULTIFAMILY", "applicant_name": "NOVION, SHAUN", "latitude": "47.52258945", "longitude": "-122.27332298", "application_permit_number": "6176772", "issue_date": "2011-08-01T00:00:00"}, {"description": "Construct the NE triplex (Establish use and construct two 2-unit and two 3-unit touwnhouses with attaached garages, per plan).  Review and processing for 4 ap under 6176772.", "address": "9041 48TH AVE S", "value": "413976", "category": "MULTIFAMILY", "applicant_name": "NOVION, SHAUN", "latitude": "47.52266884", "longitude": "-122.27312488", "application_permit_number": "6222233", "issue_date": "2011-08-01T00:00:00"}, {"description": "Construct the SE duplex (Establish use and construct two 2-unit and two 3-unit touwnhouses with attaached garages, per plan).  Review and processing for 4 ap under 6176772.", "address": "4630 S DIRECTOR ST", "value": "296299", "category": "MULTIFAMILY", "latitude": "47.52250141", "longitude": "-122.27313361", "application_permit_number": "6222231", "issue_date": "2011-08-01T00:00:00"}, {"description": "Construct the NW duplex (Establish use and construct two 2-unit and two 3-unit touwnhouses with attaached garages, per plan).  Review and processing for 4 ap under 6176772.", "address": "9047 48TH AVE S", "value": "276978", "category": "MULTIFAMILY", "applicant_name": "NOVION, SHAUN", "latitude": "47.52266964", "longitude": "-122.27341866", "application_permit_number": "6222232", "issue_date": "2011-08-01T00:00:00"}, {"description": "Establish use as and construct new single family residence, and occupy all per plans retaining wall for 6270995 reviewed under this permit.", "address": "1653 EDGEWOOD AVE SW", "value": "304467", "category": "SINGLE FAMILY / DUPLEX", "applicant_name": "CURTIS, PAUL", "latitude": "47.58825778", "longitude": "-122.38374606", "application_permit_number": "6198849", "issue_date": "2011-08-01T00:00:00"}, {"description": "*Revision changes scope of work to shoring and excavation only. A separate permit is required for the SFR.", "address": "1643 EDGEWOOD AVE SW", "value": "304467", "category": "SINGLE FAMILY / DUPLEX", "applicant_name": "GREGORY, JOHN", "latitude": "47.58850292", "longitude": "-122.38347176", "application_permit_number": "6179632", "issue_date": "2011-08-01T00:00:00"}, {"description": "Establish use and construct one single family dwelling with attached garage, per plan.", "address": "1513 INTERLAKEN PL E", "value": "276873", "category": "SINGLE FAMILY / DUPLEX", "applicant_name": "DUFFUS, DAN", "latitude": "47.63268415", "longitude": "-122.30099974", "application_permit_number": "6284431", "issue_date": "2011-08-02T00:00:00"}, {"description": "Establish use as single family dwelling and construct one family dwelling at (5031) with attached garage per plan. (existing sfr at 5029 to remain)", "address": "5031 40TH AVE NE", "value": "229698", "category": "SINGLE FAMILY / DUPLEX", "applicant_name": "NOVION, EINAR", "latitude": "47.66579168", "longitude": "-122.28524169", "application_permit_number": "6277148", "issue_date": "2011-08-02T00:00:00"}, {"description": "Establish use and construct Single Family Residence with attached garage, per plan", "address": "115 NW 75TH ST", "value": "296373", "category": "SINGLE FAMILY / DUPLEX", "applicant_name": "MCDOWELL, MARK", "latitude": "47.68309583", "longitude": "-122.35868060", "application_permit_number": "6286640", "issue_date": "2011-08-03T00:00:00"}, {"description": "Establish use as multifamily structure and construct apartment building with basement parking and occupy per plan.", "address": "3701 S HUDSON ST", "value": "12517658", "category": "MULTIFAMILY", "applicant_name": "RUNBERG, BRIAN", "latitude": "47.55681585", "longitude": "-122.28580136", "application_permit_number": "6255925", "issue_date": "2011-08-03T00:00:00"}, {"description": "Construct one single family dwelling with attached garage on ECA site, per plans.", "address": "8230 43RD AVE NE", "value": "425479", "category": "SINGLE FAMILY / DUPLEX", "applicant_name": "QUIST, PETER", "latitude": "47.68929386", "longitude": "-122.28212340", "application_permit_number": "6217211", "issue_date": "2011-08-04T00:00:00"}, {"description": "Establish use as single family residence and construct one family dwelling with accessory dwelling unit.", "address": "2113 2ND AVE N", "value": "236024", "category": "SINGLE FAMILY / DUPLEX", "applicant_name": "SCHAEFFER, HUGH", "latitude": "47.63785451", "longitude": "-122.35366615", "application_permit_number": "6255145", "issue_date": "2011-08-05T00:00:00"}, {"description": "Establish use as and construct new single family residence, per plan.", "address": "917 W RAYE ST", "value": "320817", "category": "SINGLE FAMILY / DUPLEX", "applicant_name": "CHRISTIANSON, KIRK", "latitude": "47.64304567", "longitude": "-122.36974996", "application_permit_number": "6277487", "issue_date": "2011-08-08T00:00:00"}, {"description": "Establish & construct single family residence with attached garage and roof decks, per plan.", "address": "1018 NE 103RD ST", "value": "239339", "category": "SINGLE FAMILY / DUPLEX", "applicant_name": "PIERCE, PAUL", "latitude": "47.70328593", "longitude": "-122.31691863", "application_permit_number": "6273701", "issue_date": "2011-08-08T00:00:00"}, {"description": "CLOSED AS INCOMPLETE - EXPIRED PERMIT. Establish use and construct new single family residence with detached garage, per plan.", "address": "2514 35TH AVE W", "value": "409585", "category": "SINGLE FAMILY / DUPLEX", "applicant_name": "STEFAN, SUZANNE", "latitude": "47.64168234", "longitude": "-122.40203216", "application_permit_number": "6273340", "issue_date": "2011-08-09T00:00:00"}, {"description": "Establish use as single family residence and  construct single family residence with attached garage per plans. Establish Standard Plans. (note: revision 6353298 did not update standard plan, only updated site specific application to new architectural style)", "address": "12021 36TH AVE NE", "value": "296877", "category": "SINGLE FAMILY / DUPLEX", "applicant_name": "BRADEN, JENNIFER", "latitude": "47.71620436", "longitude": "-122.28959306", "application_permit_number": "6145731", "issue_date": "2011-08-09T00:00:00"}, {"description": "CLOSED AS INCOMPLETE - EXPIRED PERMIT. Establish use as single family dwelling and construct one family dwelling with terraced garage, per plan.", "address": "2220 BROADWAY E", "value": "391021", "category": "SINGLE FAMILY / DUPLEX", "applicant_name": "PUTZKE, MARK", "latitude": "47.63908345", "longitude": "-122.32110407", "application_permit_number": "6268815", "issue_date": "2011-08-10T00:00:00"}, {"description": "Establish use and construct single family residence with attached garage per plan.", "address": "9218 DENSMORE AVE N", "value": "274683", "category": "SINGLE FAMILY / DUPLEX", "applicant_name": "PIERCE, PAUL", "latitude": "47.69652792", "longitude": "-122.33727192", "application_permit_number": "6281615", "issue_date": "2011-08-11T00:00:00"}, {"description": "Establish use as and construct new single family residence with attached garage, per plan.", "address": "7323 14TH AVE NW", "value": "219360", "category": "SINGLE FAMILY / DUPLEX", "applicant_name": "BRANT, GREG", "latitude": "47.68216846", "longitude": "-122.37389057", "application_permit_number": "6281134", "issue_date": "2011-08-11T00:00:00"}, {"description": "Establish use as two-story single family residence and construct new 2-story single family dwelling with attached garage, per plan.", "address": "4347 53RD AVE NE", "value": "525158", "category": "SINGLE FAMILY / DUPLEX", "applicant_name": "FISHER, RICHARD", "latitude": "47.66084393", "longitude": "-122.27128382", "application_permit_number": "6270116", "issue_date": "2011-08-11T00:00:00"}, {"description": "Establish use and construct single family residence with attached garage, per plan.", "address": "10702 2ND AVE NW", "value": "366187", "category": "SINGLE FAMILY / DUPLEX", "applicant_name": "PICKERING, CHRIS", "latitude": "47.70711178", "longitude": "-122.35914743", "application_permit_number": "6282874", "issue_date": "2011-08-12T00:00:00"}, {"description": "Establish use as multifamily residential and construct new multifamily structure with surface parking, and occupy per plan.", "address": "136 22ND AVE E", "value": "518403", "category": "MULTIFAMILY", "applicant_name": "WIERENGA, MARK", "latitude": "47.61964043", "longitude": "-122.30329696", "application_permit_number": "6275524", "issue_date": "2011-08-15T00:00:00"}, {"description": "Establish use as and construct new single family residence with attached garage, per plan.", "address": "1830 BROADMOOR DR E", "value": "872554", "category": "SINGLE FAMILY / DUPLEX", "applicant_name": "BUSCH, ZEKE", "latitude": "47.63609883", "longitude": "-122.28788453", "application_permit_number": "6276636", "issue_date": "2011-08-15T00:00:00"}, {"description": "Establish use as and construct new single family residence with attached garage per plan.pr 9/27/2011 PROJECT # 6292757 Revision to add modular block retaining wall.", "address": "2918 1ST AVE N", "value": "387966", "category": "SINGLE FAMILY / DUPLEX", "applicant_name": "TROGDON, BEN", "latitude": "47.64619805", "longitude": "-122.35531138", "application_permit_number": "6271064", "issue_date": "2011-08-15T00:00:00"}, {"description": "CLOSED AS INCOMPLETE - EXPIRED PERMIT. Construct new duplex on existing foundation per plans.", "address": "5502 4TH AVE NW", "value": "334380", "category": "SINGLE FAMILY / DUPLEX", "applicant_name": "BRANT, GREG", "latitude": "47.66883810", "longitude": "-122.36168653", "application_permit_number": "6277090", "issue_date": "2011-08-15T00:00:00"}, {"description": "Construction of a four-story structure containing apartments over ground level retail use. Parking for vehicles to be provided below grade and occupy, per plan. Shoring excavation under separate permit (6272314).", "address": "1919 QUEEN ANNE AVE N", "value": "6131929", "category": "MULTIFAMILY", "applicant_name": "MACDONALD, GREG", "latitude": "47.63662870", "longitude": "-122.35739732", "application_permit_number": "6258969", "issue_date": "2011-08-15T00:00:00"}, {"description": "Establish use as single family residence and construct new single family residence, per plans.", "address": "9020 2ND AVE NE", "value": "236264", "category": "SINGLE FAMILY / DUPLEX", "applicant_name": "DUFFUS, DAN", "latitude": "47.69453488", "longitude": "-122.32652959", "application_permit_number": "6264595", "issue_date": "2011-08-16T00:00:00"}, {"description": "Remove existing residence to first floor structrure and construct new single family residence with attached garage, per plan.", "address": "2632 26TH AVE W", "value": "339428", "category": "SINGLE FAMILY / DUPLEX", "applicant_name": "BROWN, MARLO", "latitude": "47.64444993", "longitude": "-122.38997630", "application_permit_number": "6282862", "issue_date": "2011-08-17T00:00:00"}, {"description": "Establish use as single family residence and construct one family dwelling with attached garage per plan.", "address": "1508 5TH AVE N", "value": "309172", "category": "SINGLE FAMILY / DUPLEX", "applicant_name": "PIERCE, PAUL", "latitude": "47.63259377", "longitude": "-122.34692947", "application_permit_number": "6260435", "issue_date": "2011-08-17T00:00:00"}, {"description": "Establish use as single family residence and construct one family dwelling with attached garage, per plans.", "address": "11048 BARTLETT AVE NE", "value": "306687", "category": "SINGLE FAMILY / DUPLEX", "applicant_name": "MCGAR, GREG", "latitude": "47.70997033", "longitude": "-122.28185860", "application_permit_number": "6281197", "issue_date": "2011-08-22T00:00:00"}, {"description": "Establish use as and construct new single family dwelling with attached garage, per plan.", "address": "12533 PHINNEY AVE N", "value": "287994", "category": "SINGLE FAMILY / DUPLEX", "applicant_name": "MCGAR, GREG", "latitude": "47.72061797", "longitude": "-122.35470194", "application_permit_number": "6197861", "issue_date": "2011-08-22T00:00:00"}, {"description": "Establish use as and construct a new single family residence per plan.", "address": "4111 SW ROSE ST", "value": "303117", "category": "SINGLE FAMILY / DUPLEX", "applicant_name": "PIERCE, PAUL", "latitude": "47.52903359", "longitude": "-122.38529075", "application_permit_number": "6286547", "issue_date": "2011-08-24T00:00:00"}, {"description": "Establish use as and construct single family residence per plan", "address": "1929 15TH AVE E", "value": "337129", "category": "SINGLE FAMILY / DUPLEX", "applicant_name": "PIERCE, PAUL", "latitude": "47.63686220", "longitude": "-122.31396294", "application_permit_number": "6284271", "issue_date": "2011-08-24T00:00:00"}, {"description": "Establish use and construct a Single Family Residence with attached garage, per plan.", "address": "9221 WALLINGFORD AVE N", "value": "289853", "category": "SINGLE FAMILY / DUPLEX", "applicant_name": "PIERCE, PAUL", "latitude": "47.69652650", "longitude": "-122.33683822", "application_permit_number": "6281207", "issue_date": "2011-08-24T00:00:00"}, {"description": "Construct single family residence with attached garage, per plan.", "address": "621 N 60TH ST", "value": "398457", "category": "SINGLE FAMILY / DUPLEX", "applicant_name": "ROBERTSON, DREW", "latitude": "47.67225994", "longitude": "-122.35050355", "application_permit_number": "6273643", "issue_date": "2011-08-24T00:00:00"}, {"description": "Establish use and construct new single family residence with attached garage, per plan.", "address": "14014 30TH AVE NE", "value": "265203", "category": "SINGLE FAMILY / DUPLEX", "applicant_name": "BRANT, GREG", "latitude": "47.73053169", "longitude": "-122.29619863", "application_permit_number": "6279086", "issue_date": "2011-08-24T00:00:00"}, {"description": "CLOSED AS INCOMPLETE - EXPIRED PERMIT. Construct duplex this permit.(Establish use and construct duplex and single family dwelling with surface parking, per plan.) Review and processing under AP#6271094.", "address": "1516 NW 64TH ST", "value": "330545", "category": "SINGLE FAMILY / DUPLEX", "applicant_name": "NOVION, EINAR", "latitude": "47.67544880", "longitude": "-122.37707209", "application_permit_number": "6271094", "issue_date": "2011-08-24T00:00:00"}, {"description": "Construct single family dwelling this permit.(Establish use and construct duplex and single family dwelling with surface parking, per plan.) Review and processing under AP#6271094.", "address": "1518 NW 64TH ST", "value": "177767", "category": "SINGLE FAMILY / DUPLEX", "applicant_name": "NOVION, EINAR", "latitude": "47.67558115", "longitude": "-122.37706315", "application_permit_number": "6275636", "issue_date": "2011-08-24T00:00:00"}, {"description": "Establish use as single family dwelling and construct one family dwelling on existing foundation with an accessory delling unit per plan.", "address": "924 19TH AVE", "value": "220789", "category": "SINGLE FAMILY / DUPLEX", "applicant_name": "WEBB, TOM", "latitude": "47.61108974", "longitude": "-122.30725324", "application_permit_number": "6274392", "issue_date": "2011-08-25T00:00:00"}, {"description": "Establish use for and construct new single family dwelling with attached garage on vacant site per LBA 3010501, and variance 3007099 per plans.", "address": "4133B 21ST AVE SW", "value": "245398", "category": "SINGLE FAMILY / DUPLEX", "applicant_name": "NULER, JOHN", "latitude": "47.56551232", "longitude": "-122.36087956", "application_permit_number": "6262620", "issue_date": "2011-08-26T00:00:00"}, {"description": "Establish Use as a Single Family Residence and Construct Single Family Dwelling per plans.", "address": "506 N 75TH ST", "value": "286104", "category": "SINGLE FAMILY / DUPLEX", "applicant_name": "MCGAR, GREG", "latitude": "47.68346826", "longitude": "-122.35202705", "application_permit_number": "6286907", "issue_date": "2011-08-29T00:00:00"}, {"description": "Establish use as single family residence and construct one family dwelling and occupy, per plan.", "address": "3501 W LAWTON CIR", "value": "415847", "category": "SINGLE FAMILY / DUPLEX", "applicant_name": "RHODES, RYAN", "latitude": "47.66489939", "longitude": "-122.40262093", "application_permit_number": "6277565", "issue_date": "2011-08-30T00:00:00"}, {"description": "Establish use as single family residence and construct one family dwelling per plans. Project includes removal of existing garage.", "address": "4041 37TH AVE S", "value": "217535", "category": "SINGLE FAMILY / DUPLEX", "applicant_name": "PIERCE, PAUL", "latitude": "47.56670724", "longitude": "-122.28638505", "application_permit_number": "6280741", "issue_date": "2011-08-30T00:00:00"}, {"description": "Shoring and Excavation for construction of a retail and residential building, per plan", "address": "711 BELLEVUE AVE E", "value": "300000", "category": "MULTIFAMILY", "applicant_name": "CARR, SCOT", "latitude": "47.62543165", "longitude": "-122.32692429", "application_permit_number": "6279253", "issue_date": "2011-08-30T00:00:00"}, {"description": "Establish use as and construct single family residence with detached garage, per plan.", "address": "2316 42ND AVE E", "value": "397259", "category": "SINGLE FAMILY / DUPLEX", "applicant_name": "PIERCE, PAUL", "latitude": "47.63969717", "longitude": "-122.27816888", "application_permit_number": "6283957", "issue_date": "2011-08-31T00:00:00"}, {"description": "Establish use as single family dwelling and construct one family dwelling with attached garage per plan.", "address": "138 NW 54TH ST", "value": "601186", "category": "SINGLE FAMILY / DUPLEX", "applicant_name": "HICKS, GORDON", "latitude": "47.66839086", "longitude": "-122.35900209", "application_permit_number": "6265657", "issue_date": "2011-08-31T00:00:00"}, {"description": "Establish use new single family residence. Constrcut new single family residence and expand out to pin piles per plan.", "address": "3416 35TH AVE SW", "value": "324000", "category": "SINGLE FAMILY / DUPLEX", "applicant_name": "ROBERTSON, DREW", "latitude": "47.57234028", "longitude": "-122.37582932", "application_permit_number": "6273648", "issue_date": "2011-08-31T00:00:00"}, {"description": "Establish use and construct (1) two family dwelling with attached garages per plan. (Establish use and construct (1) SFR & (1) Duplex with attached garage per plan).Review & process for 2 AP's under #6272333", "address": "2433 55TH AVE SW", "value": "370440", "category": "SINGLE FAMILY / DUPLEX", "applicant_name": "MCNELIS, LISA", "latitude": "47.58131831", "longitude": "-122.40287924", "application_permit_number": "6278349", "issue_date": "2011-08-31T00:00:00"}, {"description": "Establish use and construct (1)Single family dwelling with attached garage per plan.(Establish use and construct (1) SFR & (1) Duplex w/attached garages per plan).Review & process for 2 AP's under #6272333", "address": "2431 55TH AVE SW", "value": "188149", "category": "SINGLE FAMILY / DUPLEX", "applicant_name": "MCNELIS, LISA", "latitude": "47.58129360", "longitude": "-122.40316960", "application_permit_number": "6272333", "issue_date": "2011-08-31T00:00:00"}, {"description": "Establish use and construct single family dwelling w/attached garage, per plans.", "address": "6516 28TH AVE NW", "value": "247181", "category": "SINGLE FAMILY / DUPLEX", "applicant_name": "PICKERING, CHRIS", "latitude": "47.67644443", "longitude": "-122.39266072", "application_permit_number": "6259704", "issue_date": "2011-09-01T00:00:00"}, {"description": "Establish use as single family dwelling and construct one family dwelling with attached garage per plan.", "address": "2107 2ND AVE N", "value": "289853", "category": "SINGLE FAMILY / DUPLEX", "applicant_name": "PIERCE, PAUL", "latitude": "47.63771713", "longitude": "-122.35366303", "application_permit_number": "6284264", "issue_date": "2011-09-02T00:00:00"}, {"description": "Establish use and construct new single-family residence with attached garage per plan.", "address": "2481 PERKINS LN W", "value": "739355", "category": "SINGLE FAMILY / DUPLEX", "applicant_name": "LAWRENCE, THOMAS", "latitude": "47.64060321", "longitude": "-122.41489789", "application_permit_number": "6260069", "issue_date": "2011-09-02T00:00:00"}, {"description": "Establish use as a single family residence and install pre-built Gold  Seal modular constructed floating home in permited Slip #4 per plan.", "address": "2369 FAIRVIEW AVE E", "value": "50000", "category": "SINGLE FAMILY / DUPLEX", "applicant_name": "HUSSING, TROY", "latitude": "47.64173627", "longitude": "-122.33006646", "application_permit_number": "6290091", "issue_date": "2011-09-07T00:00:00"}, {"description": "Phased project: Construction of a retail and residential building and occupy, per plan. 3 phases: Ph.I shoring and excavation (6279253); Ph.II foundation and first floor slab, 2nd of bldg B north (6279255); Ph.III structural and architectural completion (6279256).", "address": "711 BELLEVUE AVE E", "value": "8363105", "category": "MULTIFAMILY", "applicant_name": "CARR, SCOT", "latitude": "47.62543165", "longitude": "-122.32692429", "application_permit_number": "6213875", "issue_date": "2011-09-07T00:00:00"}, {"description": "Establish use and construct single family residence, per plan.", "address": "1133 32ND AVE S", "value": "539807", "category": "SINGLE FAMILY / DUPLEX", "applicant_name": "GOTTLIEB, WILLIAM", "latitude": "47.59236698", "longitude": "-122.29181605", "application_permit_number": "6249925", "issue_date": "2011-09-07T00:00:00"}, {"description": "Establish use and construct single family residence with attached garage, per plans.", "address": "1516 NE 77TH ST", "value": "218311", "category": "SINGLE FAMILY / DUPLEX", "applicant_name": "HAUGHIAN, MOIRA", "latitude": "47.68499302", "longitude": "-122.31136484", "application_permit_number": "6288120", "issue_date": "2011-09-08T00:00:00"}, {"description": "Construct new single family dwelling with attached garage for required parking and remove existing detached garage per plans.", "address": "9505 MARY AVE NW", "value": "249161", "category": "SINGLE FAMILY / DUPLEX", "applicant_name": "ARD, BRITTANI", "latitude": "47.69810625", "longitude": "-122.37571233", "application_permit_number": "6275630", "issue_date": "2011-09-08T00:00:00"}, {"description": "Establish use and construct new single family residence with detached garage, per plan. (Standard plan with 6278993).", "address": "8714 3RD AVE NW", "value": "240475", "category": "SINGLE FAMILY / DUPLEX", "applicant_name": "PALIDAR, BRIAN", "latitude": "47.69287925", "longitude": "-122.36040912", "application_permit_number": "6262183", "issue_date": "2011-09-08T00:00:00"}, {"description": "Construct new single family dwelling with attached garage, per plans.", "address": "2612 NW 64TH ST", "value": "325250", "category": "SINGLE FAMILY / DUPLEX", "applicant_name": "BERTCH, BILL", "latitude": "47.67542912", "longitude": "-122.39079710", "application_permit_number": "6283278", "issue_date": "2011-09-09T00:00:00"}, {"description": "Construct new single family dwelling with attached garage, per plans.", "address": "508 N 74TH ST", "value": "363830", "category": "SINGLE FAMILY / DUPLEX", "applicant_name": "CHRISTIANSON, KIRK", "latitude": "47.68274014", "longitude": "-122.35204667", "application_permit_number": "6286147", "issue_date": "2011-09-12T00:00:00"}, {"description": "Establish use as and construct new triplex at the east end of existing duplex (with surface parking) per plan.", "address": "4000C 14TH AVE S", "value": "468941", "category": "SINGLE FAMILY / DUPLEX", "applicant_name": "LEDOUX, JULIE", "latitude": "47.56782288", "longitude": "-122.31428498", "application_permit_number": "6251142", "issue_date": "2011-09-12T00:00:00"}, {"description": "Establish use as townhouses and construct duplex per plans.  Project includes removal of existing detached garage.", "address": "4012 LINDEN AVE N", "value": "345998", "category": "SINGLE FAMILY / DUPLEX", "applicant_name": "NOVION, ANDREW", "latitude": "47.65589085", "longitude": "-122.34807824", "application_permit_number": "6285155", "issue_date": "2011-09-13T00:00:00"}, {"description": "Remove existing garage and shed accessory to existing house. Establish use as and construct two unit townhouse with surface parking, per plan.", "address": "1419 NW 60TH ST", "value": "354895", "category": "SINGLE FAMILY / DUPLEX", "applicant_name": "NOVION, ANDREW", "latitude": "47.67205596", "longitude": "-122.37446873", "application_permit_number": "6281957", "issue_date": "2011-09-13T00:00:00"}, {"description": "Construct four unit townhouse with surface parking, per plans.", "address": "4051 M L KING JR WAY S", "value": "576830", "category": "MULTIFAMILY", "applicant_name": "KOCH, JOHN", "latitude": "47.56711751", "longitude": "-122.29729143", "application_permit_number": "6230580", "issue_date": "2011-09-14T00:00:00"}, {"description": "Establish use as single family dwelling and construct one family dwelling with accessory dwelling unit and attached garage per plan.", "address": "2020 S CHARLES ST", "value": "312087", "category": "SINGLE FAMILY / DUPLEX", "applicant_name": "WEBER, JULIAN", "latitude": "47.59465477", "longitude": "-122.30518834", "application_permit_number": "6279859", "issue_date": "2011-09-14T00:00:00"}, {"description": "Establish use as and construct new single family residence, per plan.", "address": "7519 SUNNYSIDE AVE N", "value": "439920", "category": "SINGLE FAMILY / DUPLEX", "applicant_name": "GORDON, MARK", "latitude": "47.68382627", "longitude": "-122.32958737", "application_permit_number": "6285656", "issue_date": "2011-09-14T00:00:00"}, {"description": "Establish use for and construct a single family dwelling, per legal lot determination letter, easement, and per plans.Post Permit Revision approved on 2/27/2012 project #6310414 Revision to site plan to conform with new LBA.", "address": "720 W WHEELER ST", "value": "297344", "category": "SINGLE FAMILY / DUPLEX", "applicant_name": "DUFFUS, DAN", "latitude": "47.64082816", "longitude": "-122.36706703", "application_permit_number": "6285653", "issue_date": "2011-09-15T00:00:00"}, {"description": "Establish use as single family dwelling and construct new single family dwelling with terrace garage, per plan", "address": "5408 WALLINGFORD AVE N", "value": "121399", "category": "SINGLE FAMILY / DUPLEX", "applicant_name": "GORKIEWICZ, CHELSEA", "latitude": "47.66825680", "longitude": "-122.33613967", "application_permit_number": "6274807", "issue_date": "2011-09-15T00:00:00"}, {"description": "Establish use and construct single family dwelling with attached garage per plan.", "address": "8635 FAUNTLEROY WAY SW", "value": "544025", "category": "SINGLE FAMILY / DUPLEX", "applicant_name": "DEARTH, JIM", "latitude": "47.52578697", "longitude": "-122.39411533", "application_permit_number": "6279940", "issue_date": "2011-09-15T00:00:00"}, {"description": "CLOSED AS INCOMPLETE - EXPIRED PERMIT. Shoring and excavation for associated construction of a residential and retail building, per plan", "address": "1500 NW MARKET ST", "value": "560000", "category": "MULTIFAMILY", "applicant_name": "MACDONALD, ANDREW", "latitude": "47.66890986", "longitude": "-122.37669657", "application_permit_number": "6276087", "issue_date": "2011-09-16T00:00:00"}, {"description": "Establish use as townhomes and construct new 4-unit townhouses with surface parking, per plan.", "address": "1401 NE 86TH ST", "value": "415476", "category": "MULTIFAMILY", "applicant_name": "BREWER, SCOTT", "latitude": "47.69116042", "longitude": "-122.31338667", "application_permit_number": "6257818", "issue_date": "2011-09-16T00:00:00"}, {"description": "Establish use and construct one new Single Family Residence with attached garage all per plans", "address": "719 NW 95TH ST", "value": "277089", "category": "SINGLE FAMILY / DUPLEX", "applicant_name": "PIERCE, PAUL", "latitude": "47.69767265", "longitude": "-122.36557172", "application_permit_number": "6288776", "issue_date": "2011-09-19T00:00:00"}, {"description": "Construct new single family residence with attached garage per plan.", "address": "5027 BOWEN PL S", "value": "257569", "category": "SINGLE FAMILY / DUPLEX", "applicant_name": "BOEHME, GREG", "latitude": "47.55618560", "longitude": "-122.27781769", "application_permit_number": "6287760", "issue_date": "2011-09-19T00:00:00"}, {"description": "Remove existing garage and construct new single family dwelling with attached garage, per plans.", "address": "5025 BOWEN PL S", "value": "257569", "category": "SINGLE FAMILY / DUPLEX", "applicant_name": "PIERCE, PAUL", "latitude": "47.55625411", "longitude": "-122.27780821", "application_permit_number": "6287855", "issue_date": "2011-09-19T00:00:00"}, {"description": "CLOSED AS INCOMPLETE - EXPIRED PERMIT. Establish use and construct one single family dwelling with attached garage, per plan.", "address": "5238 39TH AVE NE", "value": "200817", "category": "SINGLE FAMILY / DUPLEX", "applicant_name": "DUFFUS, DAN", "latitude": "47.66808212", "longitude": "-122.28543183", "application_permit_number": "6284316", "issue_date": "2011-09-21T00:00:00"}, {"description": "Establish use as and construct new single family residence with attached garage/per plan", "address": "13714 2ND AVE NW", "value": "381427", "category": "SINGLE FAMILY / DUPLEX", "applicant_name": "SCOTT, CHRISTOPHER", "latitude": "47.72924249", "longitude": "-122.35925227", "application_permit_number": "6281343", "issue_date": "2011-09-22T00:00:00"}, {"description": "Demolish existing SFR and construct a new SFR with basement and attached 2-car garage.", "address": "830 HILLSIDE DR E", "value": "543622", "category": "SINGLE FAMILY / DUPLEX", "applicant_name": "STILLWELL, CRAIG", "latitude": "47.62684092", "longitude": "-122.28361430", "application_permit_number": "6274297", "issue_date": "2011-09-22T00:00:00"}, {"description": "Remove existing garage and establish use as and construct new single family residence with attached garage per plans.", "address": "3403 YORK RD S", "value": "246228", "category": "SINGLE FAMILY / DUPLEX", "applicant_name": "PIERCE, PAUL", "latitude": "47.57220474", "longitude": "-122.28705455", "application_permit_number": "6284696", "issue_date": "2011-09-23T00:00:00"}, {"description": "Establish use as single family dwelling and construct one family dwelling with attached garage per plan.", "address": "2330 S ANGELINE ST", "value": "434920", "category": "SINGLE FAMILY / DUPLEX", "applicant_name": "NOVION, ANDREW", "latitude": "47.56051314", "longitude": "-122.30306925", "application_permit_number": "6214488", "issue_date": "2011-09-26T00:00:00"}, {"description": "Establish use as single family residence and construct new one family dwelling w/attached garage on vacant land per plan.", "address": "2421 S JUDKINS ST", "value": "421892", "category": "SINGLE FAMILY / DUPLEX", "applicant_name": "ARD, BRITTANI", "latitude": "47.59188304", "longitude": "-122.30028282", "application_permit_number": "6157791", "issue_date": "2011-09-28T00:00:00"}, {"description": "CLOSED AS INCOMPLETE - EXPIRED PERMIT. Establish use as and construct new single family residence with attached garage per plan.", "address": "517 TEMPLE PL", "value": "195375", "category": "SINGLE FAMILY / DUPLEX", "applicant_name": "DUFFUS, DAN", "latitude": "47.60680441", "longitude": "-122.29724857", "application_permit_number": "6292088", "issue_date": "2011-09-30T00:00:00"}, {"description": "Construct a single family dwelling with attached garage and retaining walls, per plan..", "address": "10644 BARTLETT AVE NE", "value": "346644", "category": "SINGLE FAMILY / DUPLEX", "applicant_name": "MULLER, GABRIELLE", "latitude": "47.70602437", "longitude": "-122.27989044", "application_permit_number": "6289081", "issue_date": "2011-10-04T00:00:00"}, {"description": "Establish as rowhouse and construct a four unit rowhouse with surface parking, per plan", "address": "327 N 48TH ST", "value": "581410", "category": "MULTIFAMILY", "applicant_name": "BLAZEJ, RADIM", "latitude": "47.66342014", "longitude": "-122.35420980", "application_permit_number": "6281320", "issue_date": "2011-10-04T00:00:00"}, {"description": "Establish use as and construct a 2-unit rowhouse (duplex) with attached garages, per plan.", "address": "840 NW 51ST ST", "value": "511660", "category": "MULTIFAMILY", "applicant_name": "STEPHENSON, RYAN", "latitude": "47.66590055", "longitude": "-122.36807160", "application_permit_number": "6281198", "issue_date": "2011-10-04T00:00:00"}, {"description": "Establish use and construct a single family residence with attached garage, per plan.", "address": "305 24TH AVE E", "value": "279326", "category": "SINGLE FAMILY / DUPLEX", "applicant_name": "DUFFUS, DAN", "latitude": "47.62162261", "longitude": "-122.30158081", "application_permit_number": "6290212", "issue_date": "2011-10-06T00:00:00"}, {"description": "Construct new single family residence with attached garage and acessory dwelling unit, per plan.", "address": "3412 BEACH DR SW", "value": "342950", "category": "SINGLE FAMILY / DUPLEX", "applicant_name": "TAMAYO, SERAFIN", "latitude": "47.57384598", "longitude": "-122.41617894", "application_permit_number": "6253368", "issue_date": "2011-10-06T00:00:00"}, {"description": "Establish use as and construct single family residence with attached garage, per plan", "address": "1508 E MARION ST", "value": "222001", "category": "MULTIFAMILY", "applicant_name": "DUFFUS, DAN", "latitude": "47.61054494", "longitude": "-122.31239639", "application_permit_number": "6281972", "issue_date": "2011-10-06T00:00:00"}, {"description": "Establish use and construct new single family dwelling with attached garage per plan", "address": "8253 ASHWORTH AVE N", "value": "217482", "category": "SINGLE FAMILY / DUPLEX", "applicant_name": "DUFFUS, DAN", "latitude": "47.69034986", "longitude": "-122.33966882", "application_permit_number": "6294222", "issue_date": "2011-10-11T00:00:00"}, {"description": "Establish use as rowhouses and construct 4-unit townhouse building with attached garages per plan.", "address": "8555 MIDVALE AVE N", "value": "715136", "category": "MULTIFAMILY", "applicant_name": "PENNER, ROGER", "latitude": "47.69220304", "longitude": "-122.34268792", "application_permit_number": "6283360", "issue_date": "2011-10-11T00:00:00"}, {"description": "Establish use and  construct single family dwelling with attached garage per plan.", "address": "4926 44TH AVE S", "value": "375000", "category": "SINGLE FAMILY / DUPLEX", "applicant_name": "SIRCOLOUMB, DAVE", "latitude": "47.557418", "longitude": "-122.27773894", "application_permit_number": "6289786", "issue_date": "2011-10-12T00:00:00"}, {"description": "Establish use as and construct a single family residence with an attached garage per plan.", "address": "5329 28TH AVE S", "value": "293344", "category": "SINGLE FAMILY / DUPLEX", "applicant_name": "CROSS, TOM", "latitude": "47.55378407", "longitude": "-122.29743721", "application_permit_number": "6156167", "issue_date": "2011-10-12T00:00:00"}, {"description": "Establish use as and construct new single family residence with detached garage per plan.", "address": "4845 48TH AVE SW", "value": "311857", "category": "SINGLE FAMILY / DUPLEX", "applicant_name": "ROGERS, RICHARD", "latitude": "47.55804109", "longitude": "-122.39391096", "application_permit_number": "6288224", "issue_date": "2011-10-13T00:00:00"}, {"description": "CLOSED AS INCOMPLETE - EXPIRED PERMIT. Establish use as single family dwelling and construct one family dwelling with attached garage and accessory dwelling unit per plan", "address": "2443 S MORGAN ST", "value": "317481", "category": "SINGLE FAMILY / DUPLEX", "applicant_name": "MAHER, ELIZABETH", "latitude": "47.54402592", "longitude": "-122.30049436", "application_permit_number": "6284403", "issue_date": "2011-10-14T00:00:00"}, {"description": "Phased project:  Construction of a residential and retail building and occupy, per plan.", "address": "1500 NW MARKET ST", "value": "55278220", "category": "MULTIFAMILY", "applicant_name": "MACDONALD, ANDREW", "latitude": "47.66890986", "longitude": "-122.37669657", "application_permit_number": "6124374", "issue_date": "2011-10-14T00:00:00"}, {"description": "Establish use and construct single family dwelling with attached garage, per plan.", "address": "5501 SW SPOKANE ST", "value": "361579", "category": "SINGLE FAMILY / DUPLEX", "applicant_name": "PIERCE, PAUL", "latitude": "47.57206623", "longitude": "-122.40316557", "application_permit_number": "6285209", "issue_date": "2011-10-17T00:00:00"}, {"description": "Establish use and construct single family residence with attached garage, per plan.", "address": "4243 S EDDY ST", "value": "268108", "category": "SINGLE FAMILY / DUPLEX", "applicant_name": "WEGENER, JEFF", "latitude": "47.54490127", "longitude": "-122.27916001", "application_permit_number": "6277526", "issue_date": "2011-10-17T00:00:00"}, {"description": "Establish use and construct single family residence with attached garage, per plan.", "address": "4241 S EDDY ST", "value": "268108", "category": "SINGLE FAMILY / DUPLEX", "applicant_name": "WEGENER, JEFF", "latitude": "47.54489432", "longitude": "-122.27933208", "application_permit_number": "6277519", "issue_date": "2011-10-17T00:00:00"}, {"description": "Establish use as and construct new single family residence with attached garage, per plan.PR 4/18/2012 Project # 6315220 Revision to revise roof framing and energy credits, per plan.", "address": "2629 35TH AVE W", "value": "230941", "category": "SINGLE FAMILY / DUPLEX", "applicant_name": "JOHNSON, SCOTT", "latitude": "47.64398227", "longitude": "-122.40260518", "application_permit_number": "6293168", "issue_date": "2011-10-18T00:00:00"}, {"description": "Establish use and construct single family residence with attached garage, per plan.", "address": "224 NW 107TH ST", "value": "291333", "category": "SINGLE FAMILY / DUPLEX", "applicant_name": "DUFFUS, DAN", "latitude": "47.70706062", "longitude": "-122.36045350", "application_permit_number": "6290027", "issue_date": "2011-10-18T00:00:00"}, {"description": "Establish use and construct single family residence with accessory dwelling unit and attached garage per plan (includes removal of existing detached garage)", "address": "5734 NE 61ST ST", "value": "341375", "category": "SINGLE FAMILY / DUPLEX", "applicant_name": "WEBER, JULIAN", "latitude": "47.67305433", "longitude": "-122.26463817", "application_permit_number": "6286204", "issue_date": "2011-10-18T00:00:00"}, {"description": "Establish use as and construct single family residence with attached garage, per plan", "address": "1510 E MARION ST", "value": "206073", "category": "MULTIFAMILY", "applicant_name": "DUFFUS, DAN", "latitude": "47.61054515", "longitude": "-122.31225512", "application_permit_number": "6281977", "issue_date": "2011-10-18T00:00:00"}, {"description": "To establish standard plan.", "address": "700 5TH AVE", "value": "229308", "category": "SINGLE FAMILY / DUPLEX", "applicant_name": "RUDD, MARC", "latitude": "47.60501319", "longitude": "-122.32989532", "application_permit_number": "6278993", "issue_date": "2011-10-18T00:00:00"}, {"description": "CLOSED AS INCOMPLETE - EXPIRED PERMIT. Establish use as single family residence and construct one family dwelling, per plans", "address": "1323 30TH AVE S", "value": "280483", "category": "SINGLE FAMILY / DUPLEX", "applicant_name": "TAMAYO, MICHAEL S", "latitude": "47.59147817", "longitude": "-122.29369316", "application_permit_number": "6247016", "issue_date": "2011-10-18T00:00:00"}, {"description": "Establish use as and construct new single family residence with attached garage per plan.", "address": "2312 E THOMAS ST", "value": "327351", "category": "SINGLE FAMILY / DUPLEX", "applicant_name": "DUFFUS, DAN", "latitude": "47.62162885", "longitude": "-122.30183354", "application_permit_number": "6290207", "issue_date": "2011-10-19T00:00:00"}, {"description": "Construct new single family residence, per plan.", "address": "2534 57TH AVE SW", "value": "197900", "category": "SINGLE FAMILY / DUPLEX", "applicant_name": "TRAN, TRUNG", "latitude": "47.58022066", "longitude": "-122.40497261", "application_permit_number": "6278384", "issue_date": "2011-10-19T00:00:00"}, {"description": "Establish use as single family residence. Construct one family dwelling and detached garage per plans.", "address": "7007 37TH AVE NE", "value": "333775", "category": "SINGLE FAMILY / DUPLEX", "applicant_name": "BRANT, GREG", "latitude": "47.67980042", "longitude": "-122.28850385", "application_permit_number": "6284048", "issue_date": "2011-10-19T00:00:00"}, {"description": "Construct one 4 unit townhouse building and 3 detached accessory garages, per plan.", "address": "3035 S NEVADA ST", "value": "584473", "category": "MULTIFAMILY", "applicant_name": "BENNETT, SCOTT", "latitude": "47.56483244", "longitude": "-122.29410054", "application_permit_number": "6280376", "issue_date": "2011-10-19T00:00:00"}, {"description": "Establish use as single family dwelling and construct one family dwelling with attached garage per standard plan 6288219.", "address": "6000 18TH AVE S", "value": "221474", "category": "SINGLE FAMILY / DUPLEX", "applicant_name": "NEUFFER, MIKE", "latitude": "47.54866302", "longitude": "-122.30959338", "application_permit_number": "6285392", "issue_date": "2011-10-20T00:00:00"}, {"description": "Establish use and construct single family residence with attached garage per plan. (reviews and processing for two ap#s under 6285199)", "address": "123 17TH AVE", "value": "282371", "category": "SINGLE FAMILY / DUPLEX", "applicant_name": "WEBER, JULIAN", "latitude": "47.60240099", "longitude": "-122.31056710", "application_permit_number": "6288630", "issue_date": "2011-10-20T00:00:00"}, {"description": "Establish use and construct single family residence with attached garage per plan. (Reviews and processing for two aps under ap #6285199)", "address": "121 17TH AVE", "value": "280326", "category": "SINGLE FAMILY / DUPLEX", "applicant_name": "WEBER, JULIAN", "latitude": "47.60234751", "longitude": "-122.31056968", "application_permit_number": "6285199", "issue_date": "2011-10-20T00:00:00"}, {"description": "Establish use as 2 rowhouses and construct new duplex with attached garage, per plan.", "address": "2233 NW 64TH ST", "value": "464109", "category": "SINGLE FAMILY / DUPLEX", "applicant_name": "BRANT, GREG", "latitude": "47.67513402", "longitude": "-122.38623629", "application_permit_number": "6279041", "issue_date": "2011-10-20T00:00:00"}, {"description": "Establish use and construct a new single family dwelling with attached garage per plan", "address": "13551 36TH AVE NE", "value": "213907", "category": "SINGLE FAMILY / DUPLEX", "applicant_name": "DUFFUS, DAN", "latitude": "47.72782010", "longitude": "-122.29018512", "application_permit_number": "6294127", "issue_date": "2011-10-21T00:00:00"}, {"description": "Establish use as and construct new single family residence with attached garage per plan.", "address": "3612 40TH AVE W", "value": "314568", "category": "SINGLE FAMILY / DUPLEX", "applicant_name": "DUFFUS, DAN", "latitude": "47.65272243", "longitude": "-122.40763904", "application_permit_number": "6291172", "issue_date": "2011-10-21T00:00:00"}, {"description": "Establish Use as & Construct (2) rowhouses w/ attached garages, per plan.", "address": "5918 SW STEVENS ST", "value": "442170", "category": "SINGLE FAMILY / DUPLEX", "applicant_name": "DUFFUS, DAN", "latitude": "47.57788049", "longitude": "-122.40902827", "application_permit_number": "6289698", "issue_date": "2011-10-21T00:00:00"}, {"description": "Establish use as and construct new single family residence with attached garage, per plan.", "address": "1215 SW HOLLY ST", "value": "319000", "category": "SINGLE FAMILY / DUPLEX", "applicant_name": "BILLHARZ, DANIEL", "latitude": "47.54267779", "longitude": "-122.35111196", "application_permit_number": "6264359", "issue_date": "2011-10-24T00:00:00"}, {"description": "Establish use and construct single famiy residence with attached garage, per plan.", "address": "301 24TH AVE E", "value": "272721", "category": "SINGLE FAMILY / DUPLEX", "applicant_name": "DUFFUS, DAN", "latitude": "47.62153778", "longitude": "-122.30158710", "application_permit_number": "6290209", "issue_date": "2011-10-24T00:00:00"}, {"description": "Construct mixed use apartment building with parking at ground level and occupy per plan.", "address": "10507 AURORA AVE N", "value": "6724099", "category": "MULTIFAMILY", "applicant_name": "CHAPMAN, RYAN", "latitude": "47.70539301", "longitude": "-122.34509768", "application_permit_number": "6251579", "issue_date": "2011-10-24T00:00:00"}, {"description": "Establish use as and construct single family residence with attached accessory dwelling unit per standard plan 6290361 and per plans.", "address": "4330 S BENNETT ST", "value": "210159", "category": "SINGLE FAMILY / DUPLEX", "latitude": "47.55458001", "longitude": "-122.27814732", "application_permit_number": "6282046", "issue_date": "2011-10-24T00:00:00"}, {"description": "Construct new west single family residence with garage parking per plan. (Establish use as and construct 2-new single family residences. Review and processing  for both under A/P #6279340)", "address": "2643 22ND AVE W", "value": "353891", "category": "SINGLE FAMILY / DUPLEX", "applicant_name": "GORDON, MARK", "latitude": "47.64418599", "longitude": "-122.38515084", "application_permit_number": "6279340", "issue_date": "2011-10-24T00:00:00"}, {"description": "Construct new east single family residence with surface parking per plan. (Establish use as and construct 2-new single family residences. Review and processing  for both under A/P #6279340)", "address": "2645 22ND AVE W", "value": "345726", "category": "SINGLE FAMILY / DUPLEX", "applicant_name": "GORDON, MARK", "latitude": "47.64419192", "longitude": "-122.38493410", "application_permit_number": "6284616", "issue_date": "2011-10-24T00:00:00"}, {"description": "Establish use as single family dwelling and construct one family dwelling with attached garage per standard plan 6288219.", "address": "6004 18TH AVE S", "value": "220063", "category": "SINGLE FAMILY / DUPLEX", "applicant_name": "NEUFFER, MIKE", "latitude": "47.54858547", "longitude": "-122.30958401", "application_permit_number": "6285400", "issue_date": "2011-10-25T00:00:00"}, {"description": "Establish use and construct single family residence with attached garage, per plan.", "address": "309 24TH AVE E", "value": "270305", "category": "SINGLE FAMILY / DUPLEX", "applicant_name": "DUFFUS, DAN", "latitude": "47.62173027", "longitude": "-122.30158239", "application_permit_number": "6290217", "issue_date": "2011-10-25T00:00:00"}, {"description": "Establish use as single family dwelling (SFD) and construct one SFD (Unit 8), per plan (Establish use as SFD and construct 4 - SFD's, review and process for four AP's under 6275744)", "address": "4511 RENTON AVE S", "value": "169255", "category": "SINGLE FAMILY / DUPLEX", "applicant_name": "WEBER, JULIAN", "latitude": "47.56231928", "longitude": "-122.29200589", "application_permit_number": "6275744", "issue_date": "2011-10-26T00:00:00"}, {"description": "Establish use as single family dwelling (SFD) and construct one SFD (Unit 6) with attached garage, per plan (Establish use as SFD and construct 4 - SFD's, review and process for four AP's under 6275744)", "address": "4515 RENTON AVE S", "value": "198961", "category": "SINGLE FAMILY / DUPLEX", "applicant_name": "WEBER, JULIAN", "latitude": "47.56218445", "longitude": "-122.29214108", "application_permit_number": "6289953", "issue_date": "2011-10-26T00:00:00"}, {"description": "Establish use as single family dwelling (SFD) and construct one SFD (Unit 5) with attached garage, per plan (Establish use as SFD and construct 4 - SFD's, review and process for four AP's under 6275744)", "address": "4517 RENTON AVE S", "value": "178329", "category": "SINGLE FAMILY / DUPLEX", "applicant_name": "WEBER, JULIAN", "latitude": "47.56219604", "longitude": "-122.29192903", "application_permit_number": "6289954", "issue_date": "2011-10-26T00:00:00"}, {"description": "Establish use as single family dwelling (SFD) and construct one SFD (Unit 7), per plan (Establish use as SFD and construct 4 - SFD's, review and process for four AP's under 6275744)", "address": "4513 RENTON AVE S", "value": "155598", "category": "SINGLE FAMILY / DUPLEX", "applicant_name": "WEBER, JULIAN", "latitude": "47.56253921", "longitude": "-122.29205398", "application_permit_number": "6289952", "issue_date": "2011-10-26T00:00:00"}, {"description": "Establish use and construct one 2-unit (Built Green - 4 Star) townhome with attached garages, per plan.", "address": "910 6TH AVE N", "value": "387176", "category": "SINGLE FAMILY / DUPLEX", "applicant_name": "MCVICARS, KATIE", "latitude": "47.62752931", "longitude": "-122.34477023", "application_permit_number": "6290938", "issue_date": "2011-10-28T00:00:00"}, {"description": "Construct single family dwelling as 2nd dwelling on lot with attached garage & on-site landscaping, per plan.", "address": "1926 10TH AVE W", "value": "204114", "category": "SINGLE FAMILY / DUPLEX", "applicant_name": "FRANKLIN, BILL", "latitude": "47.63672870", "longitude": "-122.36985037", "application_permit_number": "6278218", "issue_date": "2011-10-31T00:00:00"}, {"description": "CLOSED AS INCOMPLETE - EXPIRED PERMIT. Establish parking stall for per site plan and subject to field inspection", "address": "4055 NE 58TH ST", "value": "1000", "category": "SINGLE FAMILY / DUPLEX", "applicant_name": "DUFFUS, DAN", "latitude": "47.67101071", "longitude": "-122.28243658", "application_permit_number": "6298041", "issue_date": "2011-11-03T00:00:00"}, {"description": "Establish use and construct single family residence with attached garage  per plan.", "address": "4318 S FERDINAND ST", "value": "312972", "category": "SINGLE FAMILY / DUPLEX", "applicant_name": "WEBER, JULIAN", "latitude": "47.55852790", "longitude": "-122.27866282", "application_permit_number": "6279083", "issue_date": "2011-11-03T00:00:00"}, {"description": "Establish use as townhouse and construct new duplex behind existnig single family residence per plans", "address": "1122 16TH AVE", "value": "311660", "category": "SINGLE FAMILY / DUPLEX", "applicant_name": "DUFFUS, DAN", "latitude": "47.61230247", "longitude": "-122.31100626", "application_permit_number": "6287888", "issue_date": "2011-11-07T00:00:00"}, {"description": "Establish use as and construct new single family residence with attached carport, per plan***CONTACT R.PELLINGER FOR ALL REVISIONS AND RENEWALS*** PERMIT HAS BEEN EXTENDED 60 DAYS TO 10/08/2013 BASED ON THE CONSTRUCTION SCHEDULE SUBMITTED AND APPROVED.  THE APPLICANT MUST PROVIDE EVIDENCE THAT THIS PROJECT IS SUBSTANTIALLY UDNERWAY PRIOR TO THE October 8TH, 2013 EXPIRATION DATE. (Permit previously extended 90 days from 5/8/13 to 8/8/13)", "address": "2315 W PLYMOUTH ST", "value": "259798", "category": "SINGLE FAMILY / DUPLEX", "applicant_name": "VITAL, LAURENTE", "latitude": "47.63621854", "longitude": "-122.38720775", "application_permit_number": "6233147", "issue_date": "2011-11-08T00:00:00"}, {"description": "Establish use as single family residence and construct one family dwelling, per plans.", "address": "4311 NE 123RD ST", "value": "310176", "category": "SINGLE FAMILY / DUPLEX", "applicant_name": "BUCHWALTER, EMILY", "latitude": "47.71717944", "longitude": "-122.28073604", "application_permit_number": "6293351", "issue_date": "2011-11-09T00:00:00"}, {"description": "Establish and construct single family residence with attached garage per plan.", "address": "519 28TH AVE E", "value": "324946", "category": "SINGLE FAMILY / DUPLEX", "applicant_name": "PIERCE, PAUL", "latitude": "47.62388984", "longitude": "-122.29690857", "application_permit_number": "6294212", "issue_date": "2011-11-10T00:00:00"}, {"description": "Establish use as and constuct a new single family residence with detached garage per plan.", "address": "3218 NW 59TH ST", "value": "568684", "category": "SINGLE FAMILY / DUPLEX", "applicant_name": "HOOVER, CINDY", "latitude": "47.67157429", "longitude": "-122.39930192", "application_permit_number": "6284273", "issue_date": "2011-11-10T00:00:00"}, {"description": "Establish use and construct new single family dwelling with attached garage, per plans.", "address": "4307 NE 123RD ST", "value": "255050", "category": "SINGLE FAMILY / DUPLEX", "applicant_name": "NOVION, EINAR", "latitude": "47.71710858", "longitude": "-122.28088044", "application_permit_number": "6293990", "issue_date": "2011-11-15T00:00:00"}, {"description": "Construct East 2-unit Row House (Units C & D) with attached garage. (Construct two-2 unit townhouses with attached garages. (Review and process under AP# 6282505)", "address": "625 N 48TH ST", "value": "277157", "category": "SINGLE FAMILY / DUPLEX", "applicant_name": "BRANT, GREG", "latitude": "47.66344371", "longitude": "-122.35025577", "application_permit_number": "6282505", "issue_date": "2011-11-15T00:00:00"}, {"description": "Construct West 2-unit Row House (Units A & B) with attached garage. (Construct two 2 unit townhouse with attached garages.(Review and process under AP# 6282505)", "address": "621 N 48TH ST", "value": "277157", "category": "SINGLE FAMILY / DUPLEX", "applicant_name": "BRANT, GREG", "latitude": "47.66344419", "longitude": "-122.35039848", "application_permit_number": "6289517", "issue_date": "2011-11-15T00:00:00"}, {"description": "CLOSED AS INCOMPLETE - EXPIRED PERMIT. Construct 4-unit townhouse with attached 4 car garage, per electronic plans. PR 3/302012 project # 6312004 Revision to foundation wall, floor heights inverted and cistern added.", "address": "1530 15TH AVE E", "value": "566596", "category": "MULTIFAMILY", "applicant_name": "KHOURI, BRADLEY", "latitude": "47.63325979", "longitude": "-122.31231079", "application_permit_number": "6182541", "issue_date": "2011-11-16T00:00:00"}, {"description": "Establish use as and construct new multifamily structure (7 unit boarding house) and occupy per plans.", "address": "306 SUMMIT AVE E", "value": "1600000", "category": "MULTIFAMILY", "applicant_name": "KOUBA, CHIP", "latitude": "47.62109344", "longitude": "-122.32505257", "application_permit_number": "6278204", "issue_date": "2011-11-17T00:00:00"}, {"description": "Establish use as and construct new single family residence, per plan.", "address": "7515 SUNNYSIDE AVE N", "value": "439920", "category": "SINGLE FAMILY / DUPLEX", "applicant_name": "GORDON, MARK", "latitude": "47.68372085", "longitude": "-122.32959213", "application_permit_number": "6280054", "issue_date": "2011-11-17T00:00:00"}, {"description": "CLOSED AS INCOMPLETE - EXPIRED PERMIT. construct retaining wall as part of the retaining wall for 6198849 double tag with 6198849 all per plans.  (Review & Routing for 2 A/P's under 6198849).", "address": "1643 EDGEWOOD AVE SW", "value": "15000", "category": "SINGLE FAMILY / DUPLEX", "applicant_name": "GREGORY, JOHN", "latitude": "47.58850292", "longitude": "-122.38347176", "application_permit_number": "6270995", "issue_date": "2011-11-18T00:00:00"}, {"description": "Establish use as single family dwelling and contruct one family with attahced garage on portion of existing foundation per plan.", "address": "5109 SW OLGA ST", "value": "273314", "category": "SINGLE FAMILY / DUPLEX", "applicant_name": "LAM, MILTON", "latitude": "47.58025004", "longitude": "-122.39778011", "application_permit_number": "6294108", "issue_date": "2011-11-21T00:00:00"}, {"description": "Establish use as and construct a new single family residence with attached garage, per plan.", "address": "601 NW 53RD ST", "value": "328016", "category": "SINGLE FAMILY / DUPLEX", "applicant_name": "DUFFUS, DAN", "latitude": "47.66696509", "longitude": "-122.36351458", "application_permit_number": "6297421", "issue_date": "2011-11-22T00:00:00"}, {"description": "Establish use as and construct new single family residence, per plans.", "address": "5131 NE LAURELCREST LN", "value": "684000", "category": "SINGLE FAMILY / DUPLEX", "applicant_name": "ADBERG, JEFF", "latitude": "47.65663582", "longitude": "-122.27106361", "application_permit_number": "6291771", "issue_date": "2011-11-22T00:00:00"}, {"description": "Construct new two-unit townhome with attached garages, per plan.", "address": "766 BELMONT PL E", "value": "485640", "category": "MULTIFAMILY", "applicant_name": "CHRISTIANSON, KIRK", "latitude": "47.62703995", "longitude": "-122.32404651", "application_permit_number": "6267844", "issue_date": "2011-11-23T00:00:00"}, {"description": "Establish use as and construct new single family residence, per plan.", "address": "2032 41ST AVE E", "value": "378386", "category": "SINGLE FAMILY / DUPLEX", "applicant_name": "PIERCE, PAUL", "latitude": "47.63801104", "longitude": "-122.27936148", "application_permit_number": "6296608", "issue_date": "2011-11-28T00:00:00"}, {"description": "Establish use as and construct new single family residence with attached garage per plan.", "address": "5721 43RD AVE NE", "value": "336471", "category": "SINGLE FAMILY / DUPLEX", "applicant_name": "DUFFUS, DAN", "latitude": "47.67085309", "longitude": "-122.28236756", "application_permit_number": "6295596", "issue_date": "2011-11-29T00:00:00"}, {"description": "Establish use and construct single family dwelling, per plan.  Existing detached garage to remain.", "address": "7347 40TH AVE NE", "value": "325832", "category": "SINGLE FAMILY / DUPLEX", "applicant_name": "FRICKE, WAYNE", "latitude": "47.68264349", "longitude": "-122.28543959", "application_permit_number": "6282252", "issue_date": "2011-11-30T00:00:00"},